City_ID,City,Lat,Lng,Max Temp,Humidity,Cloudiness,Wind Speed,Country,Date
0,enkoping,59.6361,17.0777,23.02,59,48,3.35,SE,1722362940
1,badger,64.8,-147.5333,13.33,79,75,2.57,US,1722362836
2,hawaiian paradise park,19.5933,-154.9731,22.72,97,100,2.57,US,1722362792
3,adamstown,-25.066,-130.1015,22.01,83,77,8.42,PN,1722362767
4,kapuskasing,49.4169,-82.4331,27.52,59,95,0.15,CA,1722362941
5,codrington,-38.2667,141.9667,5.1,92,17,3.25,AU,1722362941
6,minas de marcona,-15.2119,-75.1103,18.56,47,0,4.34,PE,1722362786
7,jindabyne,-36.4167,148.6333,-0.79,93,14,1.87,AU,1722362941
8,brainerd,46.358,-94.2008,28.33,64,0,3.09,US,1722362942
9,port-aux-francais,-49.35,70.2167,2.98,94,99,12.9,TF,1722362768
10,east london,-33.0153,27.9116,14.81,55,45,8.42,ZA,1722362886
11,puerto natales,-51.7236,-72.4875,4.25,93,100,1.03,CL,1722362942
12,invercargill,-46.4,168.35,3.34,78,15,2.24,NZ,1722362943
13,college,64.8569,-147.8028,13.38,84,75,2.57,US,1722362943
14,juegang,32.3174,121.1855,26.66,87,0,5.12,CN,1722362943
15,olonkinbyen,70.9221,-8.7187,5.56,99,100,3.82,SJ,1722362776
16,lihue,21.9789,-159.3672,25.77,76,100,6.69,US,1722362777
17,lebu,-37.6167,-73.65,13.8,47,100,5.49,CL,1722362944
18,dudinka,69.4058,86.1778,17.98,51,71,4.74,RU,1722362795
19,kodiak,57.79,-152.4072,14.73,58,0,6.69,US,1722362860
20,sola,-13.8833,167.55,26.01,71,59,7.35,VU,1722362945
21,edinburgh of the seven seas,-37.0676,-12.3116,14.7,90,60,14.29,SH,1722362945
22,okhotsk,59.3833,143.3,11.16,82,100,2.55,RU,1722362945
23,filadelfia,39.9523,-75.1638,30.87,70,75,6.69,US,1722362945
24,laojunmiao,39.8333,97.7333,25.11,21,36,5.25,CN,1722362945
25,petropavlovsk-kamchatsky,53.0452,158.6483,10.33,100,100,1.0,RU,1722362774
26,vrangel',42.7297,133.0839,17.49,91,92,2.23,RU,1722362946
27,nova sintra,14.8667,-24.7167,25.01,76,88,5.99,CV,1722362839
28,slivnitsa,42.85,23.0333,23.62,33,2,2.25,BG,1722362946
29,wailua homesteads,22.0669,-159.378,25.44,83,100,6.69,US,1722362786
30,ribeira grande,38.5167,-28.7,26.54,69,40,8.23,PT,1722362947
31,grytviken,-54.2811,-36.5092,-3.19,65,23,3.29,GS,1722362947
32,papatowai,-46.5619,169.4708,4.57,68,86,5.25,NZ,1722362947
33,avarua,-21.2078,-159.775,19.03,52,40,3.09,CK,1722362947
34,manturovo,58.3353,44.7619,15.38,81,98,1.9,RU,1722362947
35,albany,42.6001,-73.9662,31.56,67,83,2.24,US,1722362744
36,gladstone,-23.85,151.25,13.21,66,38,2.57,AU,1722362948
37,bethel,41.3712,-73.414,30.48,68,40,4.12,US,1722362948
38,revda,56.801,59.9303,12.97,96,94,1.57,RU,1722362948
39,iqaluit,63.7506,-68.5145,7.62,59,87,2.83,CA,1722362948
40,valasske klobouky,49.1406,18.0076,22.03,66,4,1.53,CZ,1722362949
41,ilulissat,69.2167,-51.1,2.22,91,100,2.38,GL,1722362949
42,vadso,70.0744,29.7487,14.09,54,0,7.72,NO,1722362949
43,puerto palomas,31.7667,-107.6167,33.04,29,7,3.73,MX,1722362949
44,trinidad,-14.8333,-64.9,30.16,31,38,1.83,BO,1722362950
45,port mathurin,-19.6833,63.4167,22.41,71,16,7.63,MU,1722362831
46,les avirons,-21.2418,55.3394,17.43,59,0,3.09,RE,1722362950
47,castillos,-34.1667,-53.8333,11.88,52,62,3.12,UY,1722362950
48,haiku-pauwela,20.9219,-156.3051,23.45,93,75,3.13,US,1722362950
49,margaret river,-33.95,115.0667,14.76,85,24,5.28,AU,1722362813
50,mil'kovo,55.6078,37.7956,19.08,68,89,3.51,RU,1722362951
51,blackmans bay,-43.0167,147.3167,3.07,93,8,1.89,AU,1722362951
52,gadzhiyevo,69.2551,33.3362,10.44,84,100,7.42,RU,1722362951
53,abepura,-2.6333,140.5833,23.45,100,40,0.51,ID,1722362951
54,nabire,-3.3667,135.4833,24.67,93,93,0.98,ID,1722362952
55,ust'-kut,56.7938,105.7672,14.55,84,19,1.61,RU,1722362952
56,waitangi,-43.9535,-176.5597,7.68,98,100,2.68,NZ,1722362952
57,al ghayzah,16.2079,52.176,24.9,92,100,8.23,YE,1722362952
58,yellowknife,62.456,-114.3525,18.56,80,98,2.24,CA,1722362952
59,floro,61.5996,5.0328,14.98,67,75,7.2,NO,1722362953
60,weno,7.4515,151.8468,27.97,89,75,2.57,FM,1722362953
61,praia da vitoria,38.7333,-27.0667,27.09,78,68,4.4,PT,1722362953
62,vorgashor,67.5833,63.95,16.0,97,100,2.51,RU,1722362953
63,fort bragg,35.139,-79.006,31.91,67,75,4.12,US,1722362954
64,georgetown,5.4112,100.3354,28.96,84,20,0.51,MY,1722362954
65,turaif,31.6725,38.6637,32.14,23,0,3.09,SA,1722362954
66,hadibu,12.65,54.0333,26.14,81,87,8.11,YE,1722362954
67,stanley,54.868,-1.6985,21.77,54,0,4.63,GB,1722362955
68,punta arenas,-53.15,-70.9167,3.06,75,0,4.63,CL,1722362946
69,general ramirez,-32.176,-60.2008,14.37,44,62,5.46,AR,1722362955
70,hamilton,39.1834,-84.5333,30.92,67,40,5.66,US,1722362821
71,vilyuchinsk,52.9306,158.4028,11.15,96,100,0.44,RU,1722362955
72,ambon,-3.6954,128.1814,27.15,95,40,2.06,ID,1722362956
73,longyearbyen,78.2186,15.6401,9.91,81,75,3.09,SJ,1722362779
74,pindi gheb,33.2402,72.2661,32.6,58,91,2.38,PK,1722362956
75,bilibino,68.0546,166.4372,5.48,88,100,1.12,RU,1722362956
76,thompson,55.7435,-97.8558,30.23,30,49,3.5,CA,1722362957
77,dunedin,-45.8742,170.5036,3.22,79,98,5.02,NZ,1722362957
78,shindand,33.3029,62.1474,32.33,19,0,4.38,AF,1722362957
79,qaqortoq,60.7167,-46.0333,10.4,44,0,14.95,GL,1722362957
80,brookings,44.3114,-96.7984,29.58,55,0,2.57,US,1722362957
81,sigli,5.3848,95.9609,26.31,83,100,2.5,ID,1722362958
82,prieska,-29.6641,22.7474,9.51,31,0,3.17,ZA,1722362958
83,irara,-12.05,-38.7667,25.21,71,67,5.5,BR,1722362958
84,tokar,18.4254,37.729,36.87,33,89,4.64,SD,1722362958
85,noumea,-22.2763,166.4572,21.67,99,100,2.83,NC,1722362909
86,santa elena de uairen,4.6167,-61.1333,25.05,61,78,4.91,VE,1722362959
87,rio gallegos,-51.6226,-69.2181,3.03,74,100,4.5,AR,1722362959
88,utrik,11.2278,169.8474,27.61,81,50,5.58,MH,1722362959
89,kerikeri,-35.2268,173.9474,10.03,95,55,1.3,NZ,1722362959
90,kapa'a,22.0752,-159.319,26.18,81,100,6.69,US,1722362960
91,egilsstadir,65.2653,-14.3948,11.95,87,75,6.17,IS,1722362960
92,misratah,32.3754,15.0925,28.43,69,0,6.46,LY,1722362960
93,abalak,58.1286,68.5944,12.62,96,20,1.93,RU,1722362960
94,ceeldheer,3.8488,47.1806,24.34,83,86,7.39,SO,1722362961
95,atafu village,-8.5421,-172.5159,27.85,76,100,10.91,TK,1722362961
96,shenjiamen,29.9576,122.298,26.95,92,37,8.78,CN,1722362961
97,cabo san lucas,22.8909,-109.9124,35.34,47,0,5.14,MX,1722362543
98,kavieng,-2.5744,150.7967,27.66,80,18,7.93,PG,1722362961
99,san borja,-14.8167,-66.85,29.7,34,29,2.12,BO,1722362962
100,kamyaran,34.7956,46.9355,27.34,20,0,2.74,IR,1722362962
101,sehore,23.2,77.0833,24.81,93,90,2.46,IN,1722362962
102,west island,-12.1568,96.8225,26.99,65,20,4.12,CC,1722362772
103,meulaboh,4.1363,96.1285,25.25,91,100,1.44,ID,1722362962
104,tucurui,-3.7661,-49.6725,35.3,27,9,2.67,BR,1722362963
105,jamestown,42.097,-79.2353,26.8,69,75,6.69,US,1722362963
106,shakhtersk,48.0625,38.5167,20.27,48,48,3.44,UA,1722362778
107,hermanus,-34.4187,19.2345,9.33,64,9,1.75,ZA,1722362963
108,askoy,60.4092,5.226,15.53,94,75,2.06,NO,1722362963
109,miquelon,47.0975,-56.3814,20.0,98,92,4.36,PM,1722362964
110,bereeda,11.8704,51.0579,31.37,59,100,3.56,SO,1722362964
111,arraial do cabo,-22.9661,-42.0278,21.92,73,75,2.57,BR,1722362964
112,murzuq,25.9155,13.9184,32.79,16,0,5.4,LY,1722362964
113,mili,6.0815,171.735,27.74,79,99,4.35,MH,1722362965
114,kruisfontein,-34.0033,24.7314,12.16,61,54,6.75,ZA,1722362965
115,nemuro,43.3236,145.575,14.63,95,61,5.95,JP,1722362965
116,keflavik,64.0049,-22.5624,11.24,76,75,6.17,IS,1722362965
117,concepcion,-36.827,-73.0498,11.89,71,0,3.6,CL,1722362930
118,forster,-32.1667,152.5167,9.6,92,99,6.28,AU,1722362966
119,enoch,37.7733,-113.0244,29.52,14,0,4.63,US,1722362966
120,hundested,55.9667,11.8667,21.77,55,0,1.15,DK,1722362966
121,mata-utu,-13.2816,-176.1745,25.85,72,100,10.7,WF,1722362966
122,machico,32.7,-16.7667,26.11,79,40,6.17,PT,1722362966
123,motul,21.1,-89.2833,33.88,33,100,3.38,MX,1722362967
124,dexter,36.7959,-89.9579,33.88,59,0,5.07,US,1722362967
125,whitehorse,60.7161,-135.0538,16.43,56,75,6.17,CA,1722362753
126,puerto ayora,-0.7393,-90.3518,24.98,92,98,3.13,EC,1722362968
127,pangai,-19.8,-174.35,22.89,62,32,9.6,TO,1722362968
128,dryden,49.7833,-92.7503,28.84,37,0,2.88,CA,1722362968
129,hotan,37.0997,79.9269,33.77,13,100,2.33,CN,1722362969
130,susuman,62.7833,148.1667,9.36,83,100,5.44,RU,1722362813
131,plettenberg bay,-34.0527,23.3716,10.21,68,34,3.75,ZA,1722362969
132,ciudad lazaro cardenas,17.9583,-102.2,26.64,88,100,4.17,MX,1722362969
133,veraval,20.9,70.3667,27.78,88,65,6.48,IN,1722362969
134,saint-joseph,-21.3667,55.6167,18.59,72,5,2.09,RE,1722362970
135,rajpur,22.3,74.35,25.39,88,75,4.78,IN,1722362970
136,north bend,43.4065,-124.2243,20.69,82,100,1.54,US,1722362970
137,selfoss,63.9331,-20.9971,11.16,77,99,4.29,IS,1722362971
138,tura,25.5198,90.2201,25.28,92,82,2.98,IN,1722362971
139,tindouf,27.6711,-8.1474,44.7,7,11,0.73,DZ,1722362971
140,ushuaia,-54.8,-68.3,2.79,75,29,0.86,AR,1722362971
141,brzeg dolny,51.273,16.7082,26.0,46,8,2.53,PL,1722362972
142,san luis,-33.295,-66.3356,16.74,27,99,5.39,AR,1722362972
143,ondjiva,-17.0667,15.7333,19.81,12,3,2.41,AO,1722362972
144,st. john's,47.5649,-52.7093,28.97,68,74,2.68,CA,1722362863
145,krasnyy kholm,58.0607,37.1203,14.5,90,87,2.84,RU,1722362972
146,neryungri,56.6709,124.6491,12.3,96,100,2.95,RU,1722362973
147,bredasdorp,-34.5322,20.0403,7.91,72,20,1.26,ZA,1722362775
148,qamdo,31.1667,97.2333,5.78,67,24,1.81,CN,1722362973
149,pitangueiras,-21.0094,-48.2217,25.29,30,53,3.7,BR,1722362973
150,aykhal,66.0,111.5,6.73,77,15,2.24,RU,1722362973
151,coyhaique,-45.5752,-72.0662,6.34,97,100,2.17,CL,1722362974
152,alofi,-19.0595,-169.9187,20.94,68,100,5.14,NU,1722362974
153,laela,-8.5667,32.05,18.56,22,1,2.51,TZ,1722362974
154,kingston,17.997,-76.7936,32.53,66,20,9.77,JM,1722362891
155,carnarvon,-24.8667,113.6333,18.56,84,0,5.0,AU,1722362782
156,kirensk,57.7853,108.1119,12.74,90,4,2.41,RU,1722362975
157,chibougamau,49.9168,-74.3659,29.66,34,46,2.86,CA,1722362975
158,fuglafjordur,62.244,-6.814,12.26,80,31,6.43,FO,1722362975
159,fort mcmurray,56.7268,-111.381,24.59,34,8,2.69,CA,1722362975
160,bir hadaj,31.0263,34.7031,27.93,54,0,4.0,IL,1722362975
161,nago,26.5881,127.9761,29.24,90,26,1.36,JP,1722362976
162,talnakh,69.4865,88.3972,19.31,46,13,2.04,RU,1722362976
163,lompoc,34.6391,-120.4579,27.79,68,0,6.17,US,1722362976
164,ixtapa,20.7,-105.2,32.35,70,40,3.6,MX,1722362977
165,tolanaro,-25.0319,46.9987,19.73,78,97,1.96,MG,1722362977
166,lev tolstoy,53.2134,39.446,14.55,91,85,2.45,RU,1722362977
167,an nuhud,12.7,28.4333,26.56,69,100,6.67,SD,1722362977
168,nadi,-17.8,177.4167,17.0,88,20,3.09,FJ,1722362854
169,senahu,15.4,-89.8333,22.0,75,97,2.04,GT,1722362978
170,sitka,57.0531,-135.33,13.94,88,100,4.63,US,1722362874
171,el nido,11.1858,119.3956,26.75,97,53,0.32,PH,1722362979
172,luderitz,-26.6481,15.1594,12.9,75,0,9.97,NA,1722362979
173,oranjemund,-28.55,16.4333,12.28,85,1,10.11,NA,1722362787
174,newman,37.3138,-121.0208,29.02,25,0,1.08,US,1722362979
175,preobrazheniye,42.9019,133.9064,17.61,93,96,0.41,RU,1722362979
176,la foa,-21.7108,165.8276,19.05,79,100,2.24,NC,1722362980
177,cestos city,5.46,-9.5828,25.44,79,80,4.65,LR,1722362980
178,savoy,45.5,6.4167,23.17,67,100,1.19,FR,1722362980
179,vila franca do campo,37.7167,-25.4333,25.23,67,29,2.89,PT,1722362980
180,chinde,26.8212,87.7095,25.85,86,62,1.53,NP,1722362981
181,saipan,15.1355,145.701,27.39,83,0,2.06,MP,1722362981
182,kudahuvadhoo,2.6708,72.8944,28.68,77,100,4.94,MV,1722362981
183,choibalsan,48.0667,114.5,19.98,72,97,2.05,MN,1722362981
184,ojinaga,29.5667,-104.4167,36.53,23,0,2.06,MX,1722362982
185,ancud,-41.8697,-73.8203,8.52,64,100,1.67,CL,1722362771
186,yarmouth,41.7057,-70.2286,28.43,81,0,7.72,US,1722362982
187,cannonvale,-20.2833,148.7,17.66,71,60,7.24,AU,1722362982
188,aleysk,52.4926,82.7822,18.42,65,32,2.19,RU,1722362982
189,chimore,-16.9833,-65.1333,26.93,45,66,1.37,BO,1722362983
190,island harbour,50.724,-1.2758,27.34,60,22,2.11,GB,1722362983
191,remire-montjoly,4.9167,-52.2667,32.02,66,20,6.17,GF,1722362983
192,luena,-11.7833,19.9167,19.78,18,43,1.11,AO,1722362983
193,chonchi,-42.6128,-73.8092,11.73,71,100,1.73,CL,1722362821
194,mulanje,-16.0316,35.5,20.52,33,5,2.29,MW,1722362984
195,kangding,30.0513,101.9603,13.45,84,4,1.94,CN,1722362829
196,mahibadhoo,3.7833,72.9667,28.2,81,100,5.33,MV,1722362984
197,nuuk,64.1835,-51.7216,4.34,87,75,8.75,GL,1722362984
198,port macquarie,-31.4333,152.9167,11.15,80,89,0.89,AU,1722362984
199,ad douiem,14.0012,32.3116,30.63,52,87,5.75,SD,1722362985
200,new norfolk,-42.7826,147.0587,3.73,97,9,1.12,AU,1722362985
201,narimanov,46.6927,47.8498,23.95,57,0,8.45,RU,1722362985
202,linkou,45.3,130.2833,18.78,92,98,0.7,CN,1722362985
203,anadyr,64.75,177.4833,12.28,81,0,5.0,RU,1722362986
204,hasaki,35.7333,140.8333,27.22,89,68,2.03,JP,1722362986
205,meiktila,20.8667,95.8667,23.71,91,100,7.65,MM,1722362986
206,bushehr,28.9684,50.8385,32.59,80,19,5.77,IR,1722362986
207,isafjordur,66.0755,-23.124,10.02,87,75,2.57,IS,1722362798
208,edd,13.9297,41.6925,32.6,70,90,2.73,ER,1722362987
209,monte cristo,-31.3431,-63.9444,18.85,28,58,7.74,AR,1722362987
210,ola,59.5833,151.2833,10.35,83,100,1.49,RU,1722362987
211,tiksi,71.6872,128.8694,2.21,94,100,3.2,RU,1722362987
212,simiti,7.9579,-73.9436,35.79,47,58,2.08,CO,1722362988
213,srandakan,-7.9386,110.2506,23.26,92,23,1.14,ID,1722362988
214,warrnambool,-38.3833,142.4833,5.9,89,8,3.78,AU,1722362988
215,jodiya bandar,22.7167,70.2833,28.43,86,95,7.0,IN,1722362988
216,itamarandiba,-17.8572,-42.8589,27.75,27,17,3.53,BR,1722362988
217,aasiaat,68.7098,-52.8699,3.35,86,100,1.27,GL,1722362989
218,port alfred,-33.5906,26.891,12.32,72,44,1.79,ZA,1722362989
219,lamu,-2.2717,40.902,24.31,79,59,5.95,KE,1722362989
220,yeppoon,-23.1333,150.7333,9.58,68,34,4.5,AU,1722362989
221,shubarkuduk,49.1447,56.4872,27.38,29,23,3.27,KZ,1722362990
222,oppdal,62.5943,9.6912,15.46,77,98,3.32,NO,1722362990
223,metlili chaamba,32.2667,3.6333,37.3,15,0,6.12,DZ,1722362990
224,shalqar,47.8333,59.6,29.76,20,1,4.42,KZ,1722362991
225,kingscliff,-28.2667,153.5667,9.41,82,23,4.43,AU,1722362991
226,quellon,-43.1167,-73.6167,8.59,76,100,2.9,CL,1722362991
227,port elizabeth,-33.918,25.5701,13.39,73,53,2.24,ZA,1722362991
228,iskateley,67.6803,53.1512,14.78,90,99,3.91,RU,1722362992
229,san vicente de canete,-13.0751,-76.3835,18.15,77,53,3.8,PE,1722362992
230,puerto santa,-8.9906,-78.6456,19.76,74,73,4.31,PE,1722362992
231,puerto aysen,-45.4,-72.7,5.55,100,100,0.41,CL,1722362992
232,callao,-12.0667,-77.15,21.34,80,50,4.15,PE,1722362993
233,kidal,18.4411,1.4078,34.17,38,61,3.93,ML,1722362993
234,saint-philippe,-21.3585,55.7679,18.77,75,10,1.87,RE,1722362882
235,udachny,66.4167,112.4,7.26,70,62,2.19,RU,1722362811
236,la ronge,55.1001,-105.2842,20.34,56,99,3.98,CA,1722362993
237,smithers,54.7804,-127.1743,14.97,86,100,1.35,CA,1722362993
238,chany,55.3121,76.7647,14.78,85,65,1.8,RU,1722362994
239,quang ngai,15.1167,108.8,25.42,88,100,2.25,VN,1722362994
240,usogorsk,63.4106,48.6872,18.1,69,98,0.85,RU,1722362994
241,warmbad,-28.45,18.7333,12.19,31,0,2.24,NA,1722362994
242,melfort,52.8667,-104.6177,26.02,43,89,2.46,CA,1722362995
243,sosnovo-ozerskoye,52.5249,111.5418,14.24,87,21,2.26,RU,1722362995
244,mawu,34.4307,104.9176,15.22,46,66,2.58,CN,1722362995
245,old town,50.087,14.4202,26.27,38,39,1.34,CZ,1722362995
246,monrovia,6.3005,-10.7969,25.87,79,100,5.14,LR,1722362995
247,margate,51.3813,1.3862,23.82,74,40,4.61,GB,1722362996
248,nar'yan-mar,67.6713,53.087,14.62,90,99,3.84,RU,1722362996
249,afaahiti,-17.75,-149.2833,22.93,76,100,13.68,PF,1722362996
250,cockburn town,21.4612,-71.1419,28.45,81,86,8.5,TC,1722362996
251,siocon,7.7061,122.1353,26.09,87,93,1.63,PH,1722362996
252,flying fish cove,-10.4217,105.6791,24.82,83,100,4.63,CX,1722362997
253,ust-nera,64.5667,143.2,5.67,97,100,3.83,RU,1722362997
254,antsiranana,-12.2787,49.2917,23.01,66,18,6.99,MG,1722362997
255,flin flon,54.7682,-101.865,28.63,34,100,2.02,CA,1722362998
256,yuli,9.6989,10.2744,24.58,91,79,2.31,NG,1722362998
257,muang khong,14.1167,105.85,23.49,98,100,0.82,LA,1722362998
258,kitama,-10.7167,39.7333,17.29,77,9,0.7,TZ,1722362998
259,hell-ville,-13.4,48.2667,25.05,72,6,1.67,MG,1722362998
260,chilliwack,49.1747,-121.9443,19.99,92,100,0.89,CA,1722362999
261,hazard,37.2495,-83.1932,28.13,73,39,4.59,US,1722362999
262,bonthe,7.5264,-12.505,25.03,81,99,4.92,SL,1722362999
263,taishan,22.2514,112.7799,26.25,93,94,1.68,CN,1722362999
264,zhangye,38.9342,100.4517,25.13,27,45,3.05,CN,1722362999
265,andovoranto,-18.95,49.1,19.81,81,0,2.29,MG,1722363000
266,seminole,28.7086,-81.2081,35.76,52,20,3.09,US,1722363000
267,fitzgerald,31.7149,-83.2526,31.99,66,0,1.54,US,1722362722
268,mount gambier,-37.8333,140.7667,3.56,88,59,2.47,AU,1722363000
269,san antonio de pale,-1.4014,5.6325,22.49,78,47,5.69,GQ,1722363000
270,gorontalo,0.5412,123.0595,23.08,97,79,0.72,ID,1722362835
271,leh,34.1667,77.5833,17.66,50,100,1.21,IN,1722363001
272,lazaro cardenas,17.9583,-102.2,26.64,88,100,4.17,MX,1722363001
273,marquette,46.5333,-87.6335,27.92,76,4,2.68,US,1722362862
274,rongelap,11.1635,166.8941,28.08,77,76,5.41,MH,1722363002
275,richfield,44.8833,-93.283,29.58,69,100,2.57,US,1722363002
276,constitucion,-35.3333,-72.4167,13.7,53,100,3.59,CL,1722363002
277,kotlas,61.2611,46.6556,17.7,72,100,0.9,RU,1722362964
278,christiana,-27.914,25.1611,8.95,22,51,4.84,ZA,1722363003
279,jabat,7.75,168.9751,28.52,75,93,3.68,MH,1722363003
280,gordonvale,-17.0936,145.7842,18.88,93,65,2.3,AU,1722363003
281,korla,41.7597,86.1469,34.35,21,1,3.21,CN,1722363004
282,ongjin,37.9347,125.3619,23.86,97,27,1.64,KP,1722363004
283,kanggye,40.9695,126.5852,22.24,97,90,1.62,KP,1722363004
284,birjand,32.8663,59.2211,28.26,21,0,3.09,IR,1722362778
285,devils lake,48.1128,-98.8651,27.99,57,0,6.69,US,1722363005
286,crane,31.3974,-102.3501,32.71,43,1,8.04,US,1722362810
287,igarka,67.4667,86.5833,21.65,54,100,7.03,RU,1722363005
288,malango,-2.9627,119.9001,18.32,99,63,1.0,ID,1722363005
289,argo,37.6333,22.7333,30.99,40,13,0.51,GR,1722362858
290,villa gesell,-37.2639,-56.973,11.18,52,100,8.23,AR,1722363006
291,la passe,45.5549,-0.8967,32.13,68,61,5.16,FR,1722363006
292,val-d'or,48.1002,-77.7828,28.09,47,93,2.21,CA,1722363006
293,usinsk,65.9939,57.5281,16.96,86,100,4.11,RU,1722362781
294,swan hill,-35.3378,143.5544,4.9,90,21,1.93,AU,1722363006
295,alice springs,-23.7,133.8833,0.75,64,0,3.09,AU,1722363007
296,polyarnyy,69.1989,33.4478,10.31,84,100,7.24,RU,1722363007
297,parry sound,45.3501,-80.033,27.2,63,100,1.86,CA,1722363007
298,santiago de cao,-7.9589,-79.2392,18.07,88,75,0.0,PE,1722363007
299,khandyga,62.6667,135.6,9.58,96,100,2.07,RU,1722363008
300,new plymouth,-39.0667,174.0833,10.45,100,89,8.67,NZ,1722363008
301,kulhudhuffushi,6.6221,73.07,28.56,81,100,5.18,MV,1722362783
302,macon,39.8667,-88.9668,29.86,65,0,2.57,US,1722363009
303,viljoenskroon,-27.2084,26.9485,10.08,19,95,2.91,ZA,1722363009
304,howard springs,-12.497,131.047,23.95,74,41,2.55,AU,1722363009
305,pangody,65.85,74.4859,18.82,80,99,2.2,RU,1722363009
306,pacific grove,36.6177,-121.9166,22.89,81,40,3.6,US,1722363009
307,abu jibeha,11.4562,31.2285,22.91,87,95,2.56,SD,1722363010
308,goianesia,-15.3175,-49.1175,33.22,17,1,1.83,BR,1722363010
309,puerto armuelles,8.2833,-82.8667,31.99,79,96,1.34,PA,1722363010
310,midvagur,62.0511,-7.1939,12.46,87,75,6.17,FO,1722363010
311,khash,28.2211,61.2158,30.48,19,100,6.89,IR,1722363011
312,cangzhou,38.3167,116.8667,27.37,87,55,6.04,CN,1722363011
313,walvis bay,-22.9575,14.5053,12.83,81,3,8.04,NA,1722363011
314,taos,36.4072,-105.5731,30.11,26,0,2.06,US,1722363011
315,camana,-16.6228,-72.7111,17.64,74,15,3.23,PE,1722362851
316,vylkove,45.4021,29.586,23.49,47,43,4.66,UA,1722363012
317,constantia,44.1833,28.65,26.38,48,2,0.59,RO,1722363012
318,chadron,42.8294,-102.9999,35.82,19,0,3.6,US,1722362896
319,petauke,-14.2426,31.3253,20.97,22,20,2.6,ZM,1722363012
320,pariaman,-0.619,100.12,24.03,88,97,2.11,ID,1722363013
321,tazovsky,67.4667,78.7,16.04,99,100,3.47,RU,1722363013
322,sechura,-5.5569,-80.8222,24.08,60,7,5.72,PE,1722363013
323,ghadamis,30.1337,9.5007,34.87,15,0,5.79,LY,1722363014
324,mugia,43.1041,-9.2179,24.53,82,25,2.63,ES,1722363014
325,northam,51.0333,-4.2167,22.01,77,73,2.96,GB,1722363014
326,boa vista,2.8197,-60.6733,27.99,69,75,2.06,BR,1722363014
327,wauchope,-31.45,152.7333,11.19,80,80,2.93,AU,1722363015
328,hithadhoo,-0.6,73.0833,28.9,75,100,4.68,MV,1722362801
329,alexandria,31.2156,29.9553,28.2,70,0,3.96,EG,1722363015
330,itoman,26.1247,127.6694,29.21,89,40,3.6,JP,1722363015
331,tomatlan,19.9333,-105.25,32.5,58,100,2.02,MX,1722363015
332,neiafu,-18.65,-173.9833,23.44,59,65,10.16,TO,1722363016
333,broken hill,-31.95,141.4333,6.58,67,4,3.58,AU,1722363016
334,auki,-8.7676,160.7034,23.99,89,49,1.48,SB,1722363016
335,alotau,-10.3069,150.4462,23.16,97,100,1.54,PG,1722363016
336,laguna,38.421,-121.4238,27.75,61,0,2.06,US,1722363017
337,aitape,-3.1374,142.3475,25.43,91,53,2.39,PG,1722363017
338,forbes,-33.3833,148.0167,1.62,84,9,2.43,AU,1722363017
339,inhambane,-23.865,35.3833,20.38,76,3,4.05,MZ,1722363017
340,klyuchi,52.2667,79.1667,21.82,54,71,3.24,RU,1722363018
341,luganville,-15.5333,167.1667,23.62,88,82,4.12,VU,1722363018
342,mochudi,-24.4167,26.15,21.33,21,6,2.57,BW,1722363019
343,tangalle,6.024,80.7911,26.6,87,100,3.6,LK,1722363019
344,basco,20.4487,121.9702,28.5,80,28,6.63,PH,1722363019
345,leava,-14.3,-178.1667,26.61,63,78,10.95,WF,1722363019
346,rikaze,29.25,88.8833,15.7,33,3,1.5,CN,1722363019
347,kununurra,-15.7667,128.7333,22.99,40,77,3.09,AU,1722363020
348,bamboo flat,11.7,92.7167,27.46,83,100,6.52,IN,1722363020
349,al kharijah,25.4514,30.5464,34.29,19,43,2.93,EG,1722363020
350,kalmunai,7.4167,81.8167,28.7,72,100,0.85,LK,1722362837
351,berdigestyakh,62.0989,126.6992,10.97,60,24,4.21,RU,1722363021
352,mbale,1.0821,34.175,19.86,74,100,1.48,UG,1722363021
353,as sulayyil,20.4607,45.5779,38.14,11,47,4.21,SA,1722363021
354,mumbwa,-14.9783,27.0619,19.7,14,5,1.81,ZM,1722363021
355,pokhara,28.2333,83.9833,22.85,97,82,0.71,NP,1722363022
356,tsiombe,-25.3,45.4833,18.11,70,22,2.75,MG,1722363022
357,massawa,15.6097,39.45,35.54,48,75,2.62,ER,1722363022
358,howrah,22.5892,88.3103,29.0,94,40,3.6,IN,1722362832
359,vorkuta,67.5,64.0,15.97,97,100,2.36,RU,1722363023
360,ha'il,27.5219,41.6907,35.01,16,0,5.14,SA,1722363023
361,champerico,14.3,-91.9167,35.3,74,100,2.97,GT,1722363023
362,damghan,36.1683,54.348,29.88,32,1,4.2,IR,1722363024
363,huarmey,-10.0681,-78.1522,20.53,71,18,4.43,PE,1722363024
364,ciutadella,40.0011,3.8414,32.45,57,0,4.83,ES,1722363024
365,morehead city,34.7229,-76.726,31.13,75,0,5.66,US,1722362982
366,coari,-4.085,-63.1414,37.6,25,7,1.13,BR,1722363024
367,tazacorte,28.629,-17.9293,24.54,87,40,4.63,ES,1722362871
368,douz,33.4663,9.0203,35.28,20,0,8.65,TN,1722363025
369,kamen'-rybolov,44.7481,132.0403,18.62,95,73,2.17,RU,1722363025
370,soc trang,9.6033,105.98,25.18,92,98,2.13,VN,1722363025
371,santo antonio,-6.3106,-35.4789,27.89,63,72,6.59,BR,1722363025
372,gejiu,23.306,103.1635,15.92,99,100,0.81,CN,1722363026
373,nanticoke,41.2054,-76.0049,30.31,70,97,1.34,US,1722363026
374,homer,59.6425,-151.5483,12.93,85,75,1.34,US,1722362716
375,lata,40.1629,-8.3327,29.16,52,0,2.81,PT,1722363026
376,kailua-kona,19.6406,-155.9956,25.89,79,96,2.02,US,1722362450
377,parakou,9.3372,2.6303,23.46,93,100,2.08,BJ,1722363027
378,fale old settlement,-9.3852,-171.2468,27.22,77,100,10.8,TK,1722362818
379,kone,-21.0595,164.8658,18.98,80,97,1.96,NC,1722363027
380,bucu,44.6053,27.4934,24.43,30,9,4.03,RO,1722363027
381,corlu,41.1592,27.8,22.99,68,0,6.17,TR,1722363028
382,olinda,-8.0089,-34.8553,27.85,69,75,6.69,BR,1722363028
383,placido de castro,-10.3353,-67.1856,36.45,24,51,1.13,BR,1722363028
384,deqen,29.9618,90.7188,9.32,45,1,1.47,CN,1722363028
385,bokhan,53.153,103.7714,17.93,81,57,1.07,RU,1722363029
386,san rafael,-34.6177,-68.3301,16.36,23,100,5.45,AR,1722363029
387,lorengau,-2.0226,147.2712,27.54,82,12,4.8,PG,1722363029
388,odessa,46.4775,30.7326,23.83,51,62,7.82,UA,1722362737
389,n'zeto,-7.2312,12.8666,20.84,83,73,3.71,AO,1722363029
390,mount isa,-20.7333,139.5,11.87,28,0,3.6,AU,1722363030
391,outjo,-20.1167,16.15,15.17,15,25,5.79,NA,1722362820
392,mokhsogollokh,61.4681,128.9203,11.11,69,29,3.32,RU,1722362890
393,pisco,-13.7,-76.2167,19.45,72,40,4.12,PE,1722363030
394,bowen,-20.0167,148.2333,13.62,77,27,4.93,AU,1722363030
395,prince george,53.9166,-122.753,19.23,74,100,0.89,CA,1722362856
396,taltal,-25.4,-70.4833,16.25,68,25,2.21,CL,1722363031
397,onega,63.9061,38.1404,11.42,91,72,3.16,RU,1722363031
398,kristiansund,63.1115,7.732,14.36,93,75,6.17,NO,1722363031
399,chernyshevsk,52.5243,117.0174,17.19,94,91,2.64,RU,1722363031
400,rio grande,-32.035,-52.0986,15.06,63,19,3.61,BR,1722363032
401,akureyri,65.6835,-18.0878,9.96,87,100,5.66,IS,1722362775
402,east ballina,-28.8667,153.5833,6.56,84,22,5.59,AU,1722363032
403,enewetak,11.3474,162.3373,28.29,72,95,1.54,MH,1722363032
404,alcudia,39.8532,3.1214,34.83,36,1,4.45,ES,1722363033
405,aleksandrovskoye,44.7142,43.0008,24.23,52,45,5.27,RU,1722363033
406,presidente dutra,-5.29,-44.49,37.93,17,4,3.32,BR,1722363033
407,as salamiyah,35.0113,37.0532,26.55,57,0,6.01,SY,1722363033
408,zaraza,9.3503,-65.3245,27.8,89,92,2.57,VE,1722363034
409,greymouth,-42.4667,171.2,5.89,69,100,6.42,NZ,1722363034
410,cururupu,-1.8283,-44.8683,32.05,45,24,3.24,BR,1722363034
411,labasa,-16.4167,179.3833,21.8,80,68,3.65,FJ,1722363034
412,colares,38.7992,-9.4469,25.74,79,20,4.63,PT,1722362850
413,nyagan,62.1406,65.3936,14.0,91,15,1.3,RU,1722363035
414,chegdomyn,51.1167,133.0167,16.84,90,10,1.0,RU,1722363035
415,long beach,33.767,-118.1892,27.32,67,0,3.6,US,1722362850
416,urangan,-25.3,152.9,14.18,68,42,7.04,AU,1722363035
417,lagrange,33.0393,-85.0313,31.91,66,75,2.06,US,1722363036
418,klaksvik,62.2266,-6.589,12.51,82,37,6.96,FO,1722363036
419,emmett,43.8735,-116.4993,25.12,47,87,4.9,US,1722363036
420,katsuura,35.1333,140.3,25.86,92,72,1.69,JP,1722363036
421,port blair,11.6667,92.75,27.95,83,100,6.72,IN,1722362805
422,zaragoza,41.6561,-0.8773,40.25,16,0,8.75,ES,1722363037
423,tossa de mar,41.7325,2.9338,31.17,6,5,0.43,ES,1722363037
424,shalazhi,43.0978,45.3608,25.64,47,24,2.27,RU,1722363037
425,namsos,64.4662,11.4957,19.95,56,0,0.51,NO,1722363037
426,bathsheba,13.2167,-59.5167,31.34,70,40,5.14,BB,1722363038
427,nagqu,31.5,92.0,3.39,63,35,1.55,CN,1722363038
428,saint-pierre,-21.3393,55.4781,19.82,56,0,3.09,RE,1722363038
429,el granada,37.5027,-122.4694,23.62,86,100,7.2,US,1722363038
430,cidreira,-30.1811,-50.2056,15.74,64,4,5.48,BR,1722363039
431,saldanha,-33.0117,17.9442,8.03,66,0,9.45,ZA,1722363039
432,albertina,-22.2008,-46.6158,23.64,43,93,3.85,BR,1722363040
433,hudson,40.7168,-74.0663,33.0,56,20,7.2,US,1722363040
434,bati,11.1833,40.0167,23.4,58,56,1.94,ET,1722363040
435,guerrero negro,27.9769,-114.0611,23.19,65,9,7.88,MX,1722363041
436,revelstoke,50.9832,-118.2023,19.01,88,100,1.54,CA,1722363041
437,casino,-28.8667,153.05,6.43,86,0,1.56,AU,1722363041
438,mungwi,-10.1732,31.3694,16.96,19,1,2.3,ZM,1722363041
439,ta`u,-14.2336,-169.5144,25.04,60,21,11.97,AS,1722363042
440,san mariano,7.5,126.0,22.52,96,30,0.99,PH,1722363042
441,huilong,31.8111,121.655,27.58,86,0,7.43,CN,1722363042
442,freetown,8.484,-13.2299,24.68,88,100,4.48,SL,1722363042
443,bekondo,4.6819,9.3214,21.57,94,100,1.71,CM,1722363043
444,el calafate,-50.3408,-72.2768,2.36,99,100,3.23,AR,1722363043
445,rialma,-15.315,-49.5844,34.35,16,2,0.64,BR,1722363043
446,bubaque,11.2833,-15.8333,26.46,83,99,7.34,GW,1722363044
447,vangaindrano,-23.35,47.6,19.67,89,20,0.77,MG,1722363044
448,grantsville,40.5999,-112.4644,32.27,14,0,3.13,US,1722363044
449,tommot,58.9564,126.2925,9.66,92,72,1.22,RU,1722363044
450,weihai,37.5017,122.1136,25.49,92,0,6.09,CN,1722363045
451,jackson,42.4165,-122.8345,26.51,52,0,1.54,US,1722363045
452,yur'yevets,57.3201,43.1041,16.0,88,100,4.01,RU,1722363045
453,al hufuf,25.3646,49.5653,37.19,28,0,1.54,SA,1722363045
454,zyryanskoye,56.8306,86.6258,15.75,91,18,2.51,RU,1722363045
455,canutama,-6.5339,-64.3831,39.05,19,2,1.89,BR,1722363046
456,la'ie,21.6477,-157.9253,23.98,89,100,5.36,US,1722362855
457,silkeborg,56.1697,9.5451,21.18,71,0,2.61,DK,1722363046
458,aljezur,37.3191,-8.8033,21.86,79,7,3.64,PT,1722363046
459,castelli,-25.9468,-60.6195,22.89,35,3,2.45,AR,1722363047
460,kirakira,-10.4544,161.9205,25.36,87,57,3.85,SB,1722362863
461,ekangala,-25.6962,28.7492,11.09,34,8,1.52,ZA,1722363047
462,santa vitoria do palmar,-33.5189,-53.3681,12.3,59,51,3.12,BR,1722363047
463,fortuna,40.5982,-124.1573,17.77,97,75,3.6,US,1722362812
464,boise,43.6135,-116.2035,24.72,58,75,2.24,US,1722362808
465,zaysan,47.4667,84.8667,20.01,72,100,7.55,KZ,1722363048
466,bakanas,44.8081,76.2772,28.49,32,91,2.36,KZ,1722363048
467,grabo,57.8363,12.2995,19.65,61,0,3.6,SE,1722363048
468,baihe,22.15,107.2333,24.86,96,100,0.47,CN,1722363048
469,sinabang,2.4803,96.3801,26.45,85,100,1.43,ID,1722362840
470,port lincoln,-34.7333,135.8667,10.59,52,70,4.55,AU,1722362827
471,iwanai,42.9744,140.5089,18.99,96,58,0.53,JP,1722362835
472,humaita,-7.5061,-63.0208,39.32,16,26,2.0,BR,1722363049
473,ponta delgada,37.7333,-25.6667,25.4,73,20,3.6,PT,1722362878
474,sars,56.5502,57.1366,13.77,99,67,1.86,RU,1722363050
475,port alberni,49.2413,-124.8028,19.93,86,100,1.08,CA,1722363050
476,rockland,41.1668,-74.0496,31.83,59,77,1.34,US,1722362592
477,ust'-ilimsk,58.0006,102.6619,18.53,66,95,2.69,RU,1722363050
478,bokovskaya,49.229,41.8306,20.34,46,19,3.37,RU,1722363051
479,djambala,-2.5447,14.7533,25.13,45,7,2.37,CG,1722363051
480,vila do maio,15.1333,-23.2167,28.44,75,100,3.41,CV,1722363051
481,sampacho,-33.3839,-64.7221,17.79,28,91,5.62,AR,1722363051
482,esikhaleni,-28.871,31.8996,18.46,57,60,6.62,ZA,1722363052
483,myeik,12.4333,98.6,26.27,84,100,3.09,MM,1722363052
484,axim,4.8699,-2.2405,24.48,81,83,3.47,GH,1722362856
485,puerto baquerizo moreno,-0.9,-89.6,22.55,78,40,6.69,EC,1722362844
486,jutai,-5.1833,-68.9,37.34,23,5,1.69,BR,1722363053
487,nova vicosa,-17.8919,-39.3719,26.45,65,0,4.22,BR,1722362836
488,punta del este,-34.9667,-54.95,14.06,46,0,3.6,UY,1722362841
489,prince rupert,54.3161,-130.3201,15.05,96,100,5.66,CA,1722362703
490,kill devil hills,36.0307,-75.676,29.43,71,75,4.12,US,1722363053
491,piti village,13.4626,144.6933,28.03,88,0,2.06,GU,1722363054
492,tranas,58.0372,14.9782,20.77,56,35,3.6,SE,1722363054
493,grand falls-windsor,48.9332,-55.6649,33.61,46,63,0.45,CA,1722363054
494,altamont,42.2068,-121.7372,24.11,50,0,2.24,US,1722363054
495,aligudarz,33.4006,49.6949,26.14,17,0,1.04,IR,1722363054
496,netanya,32.3329,34.8599,29.01,73,0,2.11,IL,1722363055
497,hakui,36.8833,136.7833,26.56,97,86,2.76,JP,1722363055
498,ordynskoye,54.3656,81.8994,16.26,89,55,2.38,RU,1722363055
499,peace river,56.2501,-117.286,22.31,53,21,6.03,CA,1722362894
500,pleiku,13.9833,108.0,20.35,99,100,2.12,VN,1722363055
501,neyriz,29.1988,54.3278,31.59,26,69,2.9,IR,1722363056
502,tutong,4.8,114.65,28.05,88,97,1.16,BN,1722363056
503,sao gabriel da cachoeira,-0.1303,-67.0892,31.62,56,38,0.43,BR,1722363056
504,kayangel,8.0823,134.7173,28.37,75,52,2.12,PW,1722362818
505,mandalgovi,45.7625,106.2708,17.14,77,100,3.03,MN,1722363057
506,san patricio,28.017,-97.5169,33.08,53,9,7.82,US,1722362779
507,yuzhno-kurilsk,44.0306,145.8556,14.23,96,91,7.51,RU,1722363057
508,hilo,19.7297,-155.09,22.84,98,100,2.57,US,1722363057
509,gebeit,21.0667,36.3167,32.08,35,80,7.95,SD,1722362873
510,raikot,30.65,75.6,33.44,60,100,2.11,IN,1722363058
511,vieste,41.8825,16.175,27.11,56,0,7.19,IT,1722363058
512,turinskaya sloboda,57.6232,64.3858,13.89,93,29,2.57,RU,1722363058
513,paphos,34.7667,32.4167,29.02,94,40,3.09,CY,1722363058
514,dwarka,22.2394,68.9678,28.32,87,72,8.08,IN,1722363059
515,sao joao da barra,-21.6403,-41.0511,25.05,63,55,10.5,BR,1722363059
516,siwa oasis,29.2041,25.5195,35.01,22,0,3.78,EG,1722363059
517,caleta de carquin,-11.0925,-77.6267,19.75,72,34,4.31,PE,1722363059
518,jogeva,58.7467,26.3939,17.16,93,56,2.65,EE,1722363060
519,bandarbeyla,9.4942,50.8122,25.06,82,56,14.39,SO,1722362774
520,kristinestad,62.2743,21.376,16.17,77,72,5.07,FI,1722363060
521,winnemucca,40.973,-117.7357,27.03,21,75,3.09,US,1722362828
522,mananara,-16.1667,49.7667,18.66,85,2,2.01,MG,1722363061
523,capayan,-28.761,-66.0502,21.0,27,99,1.17,AR,1722363061
524,illizi,26.4833,8.4667,36.29,12,0,7.34,DZ,1722363061
525,sabha,27.0377,14.4283,32.27,15,0,4.74,LY,1722363061
526,rice lake,45.5061,-91.7382,28.92,60,40,5.14,US,1722363062
527,wanning,18.8003,110.3967,26.14,87,100,3.94,CN,1722363062
528,papao,-17.75,-149.55,23.82,74,100,12.33,PF,1722363062
529,as safirah,36.077,37.3725,28.56,47,0,9.37,SY,1722363062
530,damaturu,11.747,11.9608,28.76,59,74,4.6,NG,1722363063
531,belmonte,-15.8631,-38.8828,25.93,68,31,3.5,BR,1722362809
532,nadym,65.5333,72.5167,16.96,92,100,2.32,RU,1722362828
533,port augusta,-32.5,137.7667,6.26,73,17,1.33,AU,1722363063
534,shetpe,44.1667,52.1167,28.46,23,0,2.78,KZ,1722363064
535,zakamensk,50.3741,103.2863,14.61,97,98,0.33,RU,1722363064
536,daru,-9.0763,143.2092,24.54,87,90,7.66,PG,1722362798
537,st anne,49.715,-2.2042,21.25,77,0,3.6,GG,1722363064
538,padang,-0.9492,100.3543,24.03,91,98,2.2,ID,1722363064
539,labrador city,52.9463,-66.9114,30.1,43,75,1.79,CA,1722362794
540,salalah,17.0151,54.0924,25.05,100,100,1.03,OM,1722363065
541,binkolo,8.9533,-11.9779,22.71,98,100,1.37,SL,1722363065
542,sundsvall,62.3913,17.3063,18.98,63,21,3.6,SE,1722363065
543,mogadishu,2.0371,45.3438,24.6,86,87,6.67,SO,1722362804
544,porto novo,6.4965,2.6036,24.76,80,99,4.32,BJ,1722363066
545,mbalmayo,3.5167,11.5,22.18,96,88,2.14,CM,1722363066
546,chissamba,-12.1667,17.3333,21.01,16,7,1.5,AO,1722363066
547,richards bay,-28.783,32.0377,18.55,56,60,5.67,ZA,1722362815
548,vanino,49.0869,140.2543,10.68,89,0,1.17,RU,1722363066
549,puerto gaitan,4.3133,-72.0816,24.7,85,100,1.15,CO,1722363067
550,taoudenni,22.6783,-3.9836,46.43,9,25,2.68,ML,1722362854
551,anahuac,27.2333,-100.15,33.91,45,8,8.69,MX,1722363067
552,ayvacik,39.6011,26.4047,25.14,56,1,6.65,TR,1722363067
553,holualoa,19.6228,-155.9522,24.37,78,96,1.7,US,1722362827
554,essaouira,31.5125,-9.77,25.72,69,0,7.72,MA,1722363068
555,port douglas,-16.4833,145.4667,20.4,74,96,7.43,AU,1722363068
556,fort st. john,56.2499,-120.8529,21.37,41,53,6.99,CA,1722362867
557,beira,-19.8436,34.8389,22.05,94,0,3.09,MZ,1722363069
